,City,Lat,Lng,Max Temp,Humidity,Cloudiness,Wind Speed,Country,Date
0,Okhotsk,59.3833,143.3,-9.11,80,0,18.03,RU,1612055798
1,Portland,45.5234,-122.6762,48.99,81,90,12.66,US,1612055602
2,Port Alfred,-33.5906,26.891,63.0,92,0,0.89,ZA,1612056001
3,Vaini,-21.2,-175.2,86.0,79,75,13.8,TO,1612055978
4,Butaritari,3.0707,172.7902,81.32,78,30,18.86,KI,1612055542
5,Constitución,-35.3333,-72.4167,59.59,93,34,8.46,CL,1612055848
6,Bredasdorp,-34.5322,20.0403,64.99,86,0,6.22,ZA,1612055534
7,Thompson,55.7435,-97.8558,14.0,92,90,2.3,CA,1612055601
8,Bluff,-46.6,168.3333,58.21,68,98,7.4,NZ,1612055780
9,Yellowknife,62.456,-114.3525,-11.99,77,20,3.44,CA,1612055788
10,Mayumba,-3.432,10.6554,76.48,85,94,1.95,GA,1612056362
11,Rikitea,-23.1203,-134.9692,79.5,70,0,11.34,PF,1612055535
12,Ancud,-41.8697,-73.8203,55.99,76,0,5.75,CL,1612055975
13,Bambous Virieux,-20.3428,57.7575,78.8,83,40,6.91,MU,1612056083
14,New Norfolk,-42.7826,147.0587,75.99,37,6,3.0,AU,1612056362
15,Port Elizabeth,-33.918,25.5701,62.6,88,0,6.91,ZA,1612056226
16,Jamestown,42.097,-79.2353,18.0,79,1,3.18,US,1612055806
17,Saint-Augustin,51.226,-58.6502,28.81,92,100,16.96,CA,1612056362
18,Ushuaia,-54.8,-68.3,50.0,66,20,24.16,AR,1612055790
19,Ribeira Grande,38.5167,-28.7,63.16,91,97,22.06,PT,1612056362
20,São José da Coroa Grande,-8.8978,-35.1478,78.17,80,91,7.78,BR,1612056193
21,Namatanai,-3.6667,152.4333,84.52,67,100,13.22,PG,1612056362
22,Torbay,47.6666,-52.7314,28.99,100,90,8.05,CA,1612056160
23,East London,-33.0153,27.9116,70.56,85,69,3.49,ZA,1612056363
24,Itarema,-2.9248,-39.9167,78.89,83,98,9.64,BR,1612056363
25,Busselton,-33.65,115.3333,80.01,51,0,1.99,AU,1612056192
26,Labuhan,-6.8844,112.2051,80.51,83,67,6.2,ID,1612056110
27,Saquarema,-22.92,-42.5103,82.4,65,0,1.14,BR,1612056363
28,San Cristobal,7.7669,-72.225,65.71,72,84,1.39,VE,1612056243
29,Nantucket,41.2835,-70.0995,19.99,49,1,14.97,US,1612056271
30,Nikolskoye,59.7035,30.7861,25.0,93,75,4.47,RU,1612056363
31,Kletskaya,49.3145,43.0584,36.0,93,100,5.99,RU,1612056363
32,Mugur-Aksy,50.35,90.5,-0.2,74,0,8.34,RU,1612056363
33,Bethel,41.3712,-73.414,19.99,53,1,4.61,US,1612056363
34,Makat,47.6469,53.3463,25.32,96,98,9.98,KZ,1612056364
35,Albany,42.6001,-73.9662,17.01,60,5,7.74,US,1612055976
36,Port Moresby,-9.4431,147.1797,77.0,94,90,8.05,PG,1612056364
37,Bengkulu,-3.8004,102.2655,74.43,93,100,6.38,ID,1612055808
38,Kahului,20.8947,-156.47,78.8,57,40,18.41,US,1612055680
39,Hobart,-42.8794,147.3294,77.0,40,40,10.36,AU,1612055489
40,Ponta do Sol,32.6667,-17.1,59.0,74,45,3.0,PT,1612055801
41,Nuevo Progreso,23.1667,-97.95,72.0,62,34,1.99,MX,1612056364
42,Palencia,42.4167,-4.5,41.0,80,3,10.0,ES,1612056364
43,Uribia,11.7139,-72.266,78.06,64,12,17.58,CO,1612056364
44,Chokurdakh,70.6333,147.9167,-29.6,85,0,8.3,RU,1612055551
45,Mhlume,-26.0333,31.85,73.0,96,26,4.09,SZ,1612056364
46,Airai,-8.9266,125.4092,62.82,100,100,5.79,TL,1612055830
47,Cherskiy,68.75,161.3,-35.3,83,0,0.96,RU,1612055821
48,Talcahuano,-36.7167,-73.1167,59.0,100,0,4.61,CL,1612056285
49,Nouakchott,18.0858,-15.9785,71.6,13,100,10.36,MR,1612055837
50,Atuona,-9.8,-139.0333,79.21,73,61,17.56,PF,1612055549
51,Tezu,27.9167,96.1667,55.62,40,40,3.6,IN,1612055792
52,Kapaa,22.0752,-159.319,77.0,69,75,14.97,US,1612055540
53,Coquimbo,-29.9533,-71.3436,64.4,94,90,4.61,CL,1612055576
54,Dongli,23.5656,116.8194,57.2,77,0,2.24,CN,1612056365
55,Hermanus,-34.4187,19.2345,64.99,86,1,9.6,ZA,1612055528
56,Litovko,49.2361,135.1742,-11.7,84,2,7.27,RU,1612055802
57,Yen Bai,21.7,104.8667,62.24,87,100,2.37,VN,1612056365
58,Amberley,39.2048,-84.428,30.99,93,90,5.75,US,1612056366
59,Talnakh,69.4865,88.3972,-31.2,71,0,6.93,RU,1612055547
60,Upernavik,72.7868,-56.1549,-9.45,85,77,6.51,GL,1612055797
61,Tiksi,71.6872,128.8694,-27.38,86,100,5.08,RU,1612055803
62,Kavieng,-2.5744,150.7967,83.41,71,97,14.05,PG,1612055820
63,Sidi Ali,36.0998,0.4206,55.35,81,100,20.27,DZ,1612055847
64,Buchach,49.0625,25.388,30.99,75,99,13.87,UA,1612056366
65,Felanitx,39.4696,3.1483,57.2,58,20,8.05,ES,1612056366
66,Carnarvon,-24.8667,113.6333,86.0,70,6,4.61,AU,1612055786
67,Saskylakh,71.9167,114.0833,-33.81,82,100,11.7,RU,1612055781
68,Mezen',65.8522,44.24,14.9,97,100,6.69,RU,1612056366
69,La Ronge,55.1001,-105.2842,12.2,85,6,2.3,CA,1612055846
70,Poum,-20.2333,164.0167,80.11,66,2,9.4,NC,1612055815
71,Sioux Lookout,50.1001,-91.917,23.0,86,90,5.75,CA,1612055844
72,Pemba,-12.974,40.5178,78.8,89,40,10.36,MZ,1612056367
73,Barrow,71.2906,-156.7887,-16.6,76,90,4.61,US,1612055781
74,Marawi,7.9986,124.2928,80.01,82,76,4.0,PH,1612055811
75,Robertsport,6.7533,-11.3686,79.99,86,0,9.06,LR,1612056367
76,Mount Gambier,-37.8333,140.7667,64.4,59,75,8.05,AU,1612055552
77,Punta Arenas,-53.15,-70.9167,50.0,66,0,23.02,CL,1612055783
78,Lata,40.1629,-8.3327,55.99,88,100,3.0,PT,1612055798
79,Abhā,18.2164,42.5053,53.6,66,0,4.61,SA,1612056367
80,Alexandria,31.2156,29.9553,57.2,67,0,9.22,EG,1612055672
81,Codrington,-38.2667,141.9667,65.07,57,0,8.46,AU,1612055807
82,Cabo San Lucas,22.8909,-109.9124,70.0,77,20,3.44,MX,1612055812
83,Qaanaaq,77.484,-69.3632,-5.6,74,98,3.36,GL,1612055805
84,Āreka,7.0667,37.7,58.06,44,0,5.97,ET,1612055832
85,Ust'-Ilimsk,58.0006,102.6619,-44.34,77,96,1.72,RU,1612056070
86,Mataura,-46.1927,168.8643,71.98,37,96,3.56,NZ,1612055786
87,Muzambinho,-21.3758,-46.5256,67.26,85,92,2.77,BR,1612056368
88,Kislovodsk,43.9133,42.7208,37.0,93,75,15.66,RU,1612056368
89,Laguna,38.421,-121.4238,57.2,51,1,5.55,US,1612055783
90,Holden,42.3518,-71.8634,10.99,56,1,8.05,US,1612056368
91,Avarua,-21.2078,-159.775,84.2,70,75,6.91,CK,1612055784
92,Verāval,20.9,70.3667,64.69,29,0,11.97,IN,1612056030
93,San Patricio,28.017,-97.5169,69.8,83,20,13.8,US,1612055841
94,Kango,0.1943,10.0951,73.89,96,100,1.45,GA,1612056368
95,Paragominas,-2.9667,-47.4833,73.04,96,100,3.56,BR,1612056265
96,Samtredia,42.1537,42.3352,41.0,75,0,9.22,GE,1612056369
97,Castro,-24.7911,-50.0119,65.57,97,100,5.08,BR,1612055535
98,Nuuk,64.1835,-51.7216,19.4,79,0,13.8,GL,1612056091
99,Taoudenni,22.6783,-3.9836,66.13,25,0,7.45,ML,1612055809
100,Katherine,-14.4667,132.2667,86.0,70,75,13.8,AU,1612056369
101,Jhudo,24.964,69.2968,53.74,63,0,5.95,PK,1612056369
102,Faanui,-16.4833,-151.75,81.75,70,31,8.03,PF,1612055790
103,Pangody,65.85,74.4859,-20.15,85,100,18.72,RU,1612056369
104,Jalu,29.0331,21.5482,59.0,43,0,11.23,LY,1612055602
105,Whitehorse,60.7161,-135.0538,-4.0,77,75,3.44,CA,1612055815
106,Hastings,50.8552,0.5729,39.0,81,81,11.01,GB,1612056370
107,Saint George,37.1041,-113.5841,48.2,53,1,1.41,US,1612055802
108,Tromsø,69.6496,18.957,21.0,86,100,2.3,NO,1612056370
109,Pangai,-19.8,-174.35,84.2,84,75,6.91,TO,1612055837
110,Iqaluit,63.7506,-68.5145,-7.01,71,1,18.41,CA,1612055841
111,Verkhnyaya Inta,65.9811,60.3094,-6.02,86,100,10.54,RU,1612056370
112,Otane,-39.8833,176.6333,71.01,51,57,1.99,NZ,1612056370
113,Rapid City,44.0805,-103.231,33.01,93,75,11.5,US,1612056170
114,Vardø,70.3705,31.1107,25.18,95,100,19.01,NO,1612055808
115,Takhatpur,22.15,81.8667,47.44,45,0,4.74,IN,1612056325
116,Hilo,19.7297,-155.09,80.6,57,75,8.05,US,1612055781
117,San Andrés,12.5847,-81.7006,80.6,74,40,13.8,CO,1612055904
118,Chumikan,54.7183,135.315,-16.67,79,1,25.75,RU,1612056370
119,Basoko,1.2391,23.616,72.63,79,100,1.1,CD,1612056371
120,Maragogi,-9.0122,-35.2225,78.04,82,100,8.3,BR,1612055990
121,Tasiilaq,65.6145,-37.6368,21.2,33,90,13.8,GL,1612055696
122,Provideniya,64.3833,-173.3,-10.1,83,98,13.87,RU,1612055721
123,Tobe,33.7447,132.7901,53.01,71,20,6.91,JP,1612056371
124,Larsnes,62.2028,5.5773,30.99,93,100,10.11,NO,1612056166
125,Mana,5.6592,-53.7767,77.79,87,100,14.45,GF,1612056081
126,Krasnosel'kup,65.7,82.4667,-25.92,83,100,12.82,RU,1612055987
127,Estevan,49.1334,-102.9842,14.0,85,90,10.36,CA,1612056371
128,Sint-Genesius-Rode,50.7464,4.3575,33.8,80,75,10.36,BE,1612056371
129,Korla,41.7597,86.1469,18.37,85,0,4.43,CN,1612055555
130,Payo,-3.7508,103.6372,74.17,93,96,4.63,ID,1612056021
131,Kyaukse,21.6,96.1333,51.8,87,54,2.3,MM,1612056372
132,Oktyabr'skoye,43.0645,44.7417,37.0,93,12,4.47,RU,1612056094
133,Coolum Beach,-26.5333,153.1,78.01,75,5,3.0,AU,1612056372
134,Leh,34.1667,77.5833,0.59,56,14,1.41,IN,1612055790
135,Cape Town,-33.9258,18.4232,71.01,77,75,5.75,ZA,1612055765
136,Kaitangata,-46.2817,169.8464,61.0,80,100,13.0,NZ,1612055605
137,Turka,49.1541,23.0297,24.01,96,100,5.01,UA,1612056372
138,Alaca,40.1683,34.8425,36.55,91,100,3.94,TR,1612056372
139,Brigantine,39.4101,-74.3646,30.0,54,1,8.84,US,1612056372
140,Tuktoyaktuk,69.4541,-133.0374,-34.6,67,40,3.44,CA,1612055537
141,Saint-Philippe,-21.3585,55.7679,78.8,65,0,6.91,RE,1612055790
142,Sitka,57.0531,-135.33,41.0,56,75,9.22,US,1612055809
143,Warrington,53.3925,-2.5802,36.0,80,100,10.36,GB,1612056106
144,Aljezur,37.3191,-8.8033,55.0,100,100,11.45,PT,1612056373
145,Baykit,61.67,96.37,-34.83,76,0,1.54,RU,1612056373
146,Mount Isa,-20.7333,139.5,98.6,25,97,6.91,AU,1612055608
147,Isangel,-19.55,169.2667,84.2,74,75,11.5,VU,1612055850
148,Yeppoon,-23.1333,150.7333,87.8,48,75,13.8,AU,1612056373
149,Souillac,-20.5167,57.5167,78.8,83,40,6.91,MU,1612055722
150,Tessalit,20.1986,1.0114,61.95,24,0,11.3,ML,1612055813
151,Nanortalik,60.1432,-45.2371,29.19,90,100,11.03,GL,1612055781
152,Vestmanna,62.1564,-7.1664,32.0,69,40,26.46,FO,1612055790
153,Kruisfontein,-34.0033,24.7314,59.0,90,0,1.01,ZA,1612055974
154,Nemuro,43.3236,145.575,15.8,67,20,3.44,JP,1612055614
155,Hong Kong,22.2855,114.1577,64.0,62,0,15.26,HK,1612055524
156,Bathsheba,13.2167,-59.5167,78.8,73,75,19.57,BB,1612055850
157,Mopipi,-21.1833,24.8833,76.01,67,7,3.67,BW,1612055855
158,Anadyr,64.75,177.4833,-2.2,78,75,22.37,RU,1612055840
159,Tuatapere,-46.1333,167.6833,66.83,45,100,0.78,NZ,1612055797
160,Aswān,24.0934,32.907,53.35,41,0,8.72,EG,1612055808
161,Tautira,-17.7333,-149.15,84.2,65,75,6.91,PF,1612055579
162,Clyde River,70.4692,-68.5914,-4.0,84,90,2.3,CA,1612055812
163,Dalmatovo,56.26,62.9362,6.33,95,78,2.73,RU,1612056374
164,Seoul,37.5683,126.9778,35.6,51,0,9.22,KR,1612055805
165,Berbera,10.4396,45.0143,72.57,79,50,4.5,SO,1612056374
166,Ballina,-28.8667,153.5667,80.6,69,90,12.66,AU,1612056374
167,Pevek,69.7008,170.3133,-33.68,84,9,2.55,RU,1612055790
168,Gijang,35.2442,129.2139,39.2,56,0,4.61,KR,1612056375
169,Husavik,66.0449,-17.3389,14.0,79,90,4.61,IS,1612055713
170,Luangwa,-15.6167,30.4167,73.13,94,100,0.36,ZM,1612055804
171,Kiama,-34.6833,150.8667,68.0,95,100,1.01,AU,1612055988
172,Londoko,49.0333,131.9833,-15.92,79,0,4.63,RU,1612056375
173,Abalak,58.1286,68.5944,12.81,96,100,8.99,RU,1612056066
174,Aklavik,68.2191,-135.0107,-16.6,76,90,5.75,CA,1612055812
175,Longyearbyen,78.2186,15.6401,-5.8,65,20,19.57,SJ,1612055809
176,Dikson,73.5069,80.5464,-34.28,80,0,6.85,RU,1612055788
177,Dingle,10.9995,122.6711,78.17,80,81,16.46,PH,1612055820
178,Rio Grande,-32.035,-52.0986,75.65,91,99,12.84,BR,1612055546
179,Kununurra,-15.7667,128.7333,86.0,89,75,9.22,AU,1612055763
180,Chui,-33.6971,-53.4616,71.06,89,100,11.1,UY,1612055814
181,Lebu,-37.6167,-73.65,56.5,85,1,12.01,CL,1612055786
182,Bazarnye Mataki,54.8833,49.9333,22.86,97,100,8.23,RU,1612056376
183,Embonas,36.2269,27.8564,59.0,72,40,10.36,GR,1612056376
184,Dudinka,69.4058,86.1778,-35.95,77,0,7.34,RU,1612056321
185,São Filipe,14.8961,-24.4956,74.12,61,100,9.13,CV,1612055581
186,Burnie,-41.0667,145.9167,61.68,69,87,5.66,AU,1612055802
187,Hamilton,39.1834,-84.5333,32.0,93,90,4.61,US,1612055764
188,Yerofey Pavlovich,53.9667,121.9667,-28.08,83,89,0.36,RU,1612056376
189,High Level,58.5169,-117.136,-4.0,84,40,3.18,CA,1612056019
190,Ahipara,-35.1667,173.1667,72.28,49,0,5.99,NZ,1612055783
191,Zheleznodorozhnyy,55.7503,38.0042,26.01,93,75,8.95,RU,1612056315
192,Hirado,33.3597,129.5531,52.0,76,0,9.22,JP,1612055852
193,Zorritos,-3.6805,-80.6782,79.83,69,98,10.94,PE,1612056377
194,Plaster Rock,46.9065,-67.39,1.4,66,1,5.75,CA,1612056377
195,Buta,2.7858,24.73,66.54,50,0,1.79,CD,1612055854
196,Archidona,37.0965,-4.3887,57.0,63,63,23.0,ES,1612056377
197,Kalmunai,7.4167,81.8167,76.39,86,100,4.83,LK,1612055846
198,Beohāri,24.05,81.3833,44.69,53,0,4.07,IN,1612056377
199,Valparaíso,-33.0393,-71.6273,66.0,100,90,4.61,CL,1612055940
200,Palmer,42.1584,-72.3287,16.0,53,1,5.75,US,1612055562
201,Hay River,60.8156,-115.7999,-14.8,76,5,2.3,CA,1612055705
202,Khakhea,-24.6895,23.494,74.05,72,95,5.66,BW,1612056377
203,Saint-François,46.4154,3.9054,43.0,93,90,3.44,FR,1612055829
204,Narsaq,60.9167,-46.05,39.2,30,75,31.07,GL,1612055550
205,Boa Vista,2.8197,-60.6733,78.8,69,75,10.36,BR,1612055856
206,Kysyl-Syr,63.8986,122.7617,-52.92,76,49,1.34,RU,1612055795
207,Gorin,51.1983,136.6669,-13.25,87,66,6.53,RU,1612055852
208,Porto-Novo,6.4965,2.6036,82.4,89,40,11.5,BJ,1612056089
209,Bonavista,48.6499,-53.1147,28.99,93,95,3.44,CA,1612056240
210,Salalah,17.0151,54.0924,66.2,68,0,3.44,OM,1612055611
211,Sinnamary,5.3833,-52.95,77.99,87,100,14.65,GF,1612056013
212,Necochea,-38.5473,-58.7368,57.99,69,26,12.12,AR,1612055977
213,Englehart,47.8169,-79.8664,-9.4,84,1,4.61,CA,1612056378
214,Aksu,41.1231,80.2644,15.84,86,4,3.04,CN,1612055785
215,Fredericia,55.5657,9.7526,33.01,92,12,13.31,DK,1612056379
216,Tilichiki,60.4667,166.1,-10.53,91,91,15.73,RU,1612055792
217,Samarai,-10.6167,150.6667,85.3,72,100,17.63,PG,1612055783
218,Dakar,14.6937,-17.4441,68.0,73,100,9.22,SN,1612055835
219,Brazzaville,-4.2658,15.2832,73.4,100,100,2.3,CG,1612056379
220,Ambunti,-4.2365,142.8448,82.2,77,100,4.41,PG,1612056379
221,Oeiras do Pará,-2.0031,-49.8544,75.69,92,100,3.11,BR,1612056379
222,Tadine,-21.55,167.8833,79.52,74,40,21.34,NC,1612055987
223,St. George's,12.0564,-61.7485,80.6,78,20,11.5,GD,1612056379
224,Man,7.4125,-7.5538,74.28,59,86,2.93,CI,1612056379
225,Diego de Almagro,-26.3667,-70.05,60.42,52,0,0.98,CL,1612056088
226,Daru,-9.0763,143.2092,80.33,80,100,13.56,PG,1612055830
227,Arraial do Cabo,-22.9661,-42.0278,77.0,82,0,26.98,BR,1612055747
228,Kavaratti,10.5669,72.642,80.78,72,4,9.06,IN,1612055826
229,Vila Velha,-20.3297,-40.2925,78.8,78,75,6.91,BR,1612055819
230,Kisangani,0.5167,25.2,69.75,87,100,0.98,CD,1612056315
231,Erzin,36.9559,36.2,50.0,97,100,3.0,TR,1612056380
232,Yenagoa,4.9247,6.2642,78.08,87,0,3.06,NG,1612056014
233,Berlevåg,70.8578,29.0864,26.6,80,0,8.05,NO,1612055814
234,Quatre Cocos,-20.2078,57.7625,78.8,83,40,6.91,MU,1612055994
235,Pandharpur,17.6667,75.3333,67.95,55,91,5.79,IN,1612056380
236,Shimoda,34.6667,138.95,50.0,57,20,5.75,JP,1612055831
237,Ixtapa,20.7,-105.2,73.4,78,1,9.22,MX,1612055796
238,Totoral,-17.4053,-70.365,62.87,55,35,2.62,PE,1612056380
239,Mehamn,71.0357,27.8492,26.6,80,0,8.05,NO,1612055812
240,Severo-Kuril'sk,50.6789,156.125,25.41,95,100,28.86,RU,1612055784
241,Victoria Point,-27.5833,153.3,82.4,61,75,10.36,AU,1612056381
242,Deputatsky,69.3,139.9,-25.11,88,100,1.7,RU,1612055816
243,Shingū,33.7333,135.9833,50.0,57,40,14.97,JP,1612055849
244,Tulum,20.2167,-87.4667,75.0,83,20,2.3,MX,1612056381
245,Cockburn Town,21.4612,-71.1419,73.4,56,20,11.5,TC,1612055803
246,Camargo,27.6667,-105.1667,68.04,24,0,9.4,MX,1612056381
247,Harbour Breton,47.4833,-55.7983,29.35,93,100,9.22,CA,1612056381
248,Vanimo,-2.6741,141.3028,85.53,65,100,8.08,PG,1612055808
249,Lavrentiya,65.5833,-171.0,-16.06,84,0,5.68,RU,1612055571
250,Saquena,-4.6667,-73.5167,74.61,94,100,2.3,PE,1612056381
251,Ngunguru,-35.6167,174.5,73.0,55,0,11.99,NZ,1612056029
252,Puerto Ayora,-0.7393,-90.3518,78.01,89,51,5.99,EC,1612055699
253,Sfinţeşti,44.1833,25.1,38.79,85,100,1.66,RO,1612056382
254,Batouri,4.4333,14.3667,68.74,68,100,2.53,CM,1612056199
255,Klaksvík,62.2266,-6.589,32.0,69,40,26.46,FO,1612055757
256,Ayacucho,-13.1583,-74.2239,57.43,68,100,2.8,PE,1612056382
257,Beisfjord,68.3751,17.5988,8.01,85,100,2.3,NO,1612056382
258,Fayaoué,-20.65,166.5333,80.17,70,100,16.71,NC,1612056382
259,Bridgetown,13.1,-59.6167,78.8,73,75,19.57,BB,1612056322
260,Karratha,-20.7377,116.8463,88.56,49,100,6.13,AU,1612055978
261,Lompoc,34.6391,-120.4579,53.6,76,1,4.61,US,1612055819
262,Hasaki,35.7333,140.8333,43.0,42,20,11.5,JP,1612055552
263,Los Llanos de Aridane,28.6585,-17.9182,64.4,77,75,13.8,ES,1612055585
264,Porto Walter,-8.2686,-72.7439,72.99,96,7,1.16,BR,1612056382
265,Blumenau,-26.9194,-49.0661,75.0,98,100,1.3,BR,1612056383
266,Adrar,20.5022,-10.0711,65.05,25,20,7.52,MR,1612055813
267,Port Lincoln,-34.7333,135.8667,66.67,63,7,14.32,AU,1612055814
268,Lüderitz,-26.6481,15.1594,65.05,66,0,18.1,NA,1612055814
269,Cabedelo,-6.9811,-34.8339,77.0,88,20,4.61,BR,1612055838
270,Kursavka,44.4564,42.5093,37.0,93,75,15.66,RU,1612056383
271,Kumul,42.8,93.45,20.62,85,0,4.81,CN,1612055829
272,Ust-Tsilma,65.441,52.1498,3.22,93,100,9.13,RU,1612056383
273,Mar del Plata,-38.0023,-57.5575,62.6,55,75,20.71,AR,1612055696
274,Kalga,50.9251,118.898,-24.45,84,88,2.55,RU,1612056383
275,Nadym,65.5333,72.5167,-17.23,86,100,20.4,RU,1612056323
276,Mareeba,-17.0,145.4333,91.0,66,75,13.8,AU,1612056135
277,Rundu,-17.9333,19.7667,67.41,97,100,4.61,NA,1612056383
278,Jieshi,22.8134,115.8257,60.01,70,3,14.25,CN,1612056384
279,Lingao,19.9103,109.6859,67.44,82,0,14.76,CN,1612056384
280,Sept-Îles,50.2001,-66.3821,19.4,63,51,9.22,CA,1612056384
281,Nyrob,60.733,56.7202,16.03,96,100,9.66,RU,1612056384
282,Denpasar,-8.65,115.2167,84.2,79,40,12.66,ID,1612056158
283,Kiryas Joel,41.342,-74.1679,23.0,58,1,5.75,US,1612056384
284,Skjervøy,70.0311,20.9714,28.09,87,100,5.5,NO,1612056384
285,Alta Floresta,-9.8756,-56.0861,72.37,95,86,2.35,BR,1612055866
286,Havøysund,70.9963,24.6622,26.6,80,40,9.22,NO,1612056261
287,Port-Gentil,-0.7193,8.7815,77.68,82,100,8.41,GA,1612056235
288,Phichit,16.25,100.4167,75.0,59,43,2.44,TH,1612056384
289,Geraldton,-28.7667,114.6,96.8,23,0,17.27,AU,1612056066
290,Walvis Bay,-22.9575,14.5053,66.99,77,1,4.61,NA,1612056385
291,Weiden,49.6775,12.1567,28.0,86,100,1.01,DE,1612056385
292,Arlit,18.7369,7.3853,60.24,27,0,6.62,NE,1612056114
293,Saldanha,-33.0117,17.9442,63.63,92,0,1.63,ZA,1612055713
294,Travesía,15.8667,-87.9,78.8,78,40,8.05,HN,1612056385
295,Nakhon Phanom,17.3333,104.4167,68.0,83,2,5.03,TH,1612056385
296,Chalmette,29.9427,-89.9634,68.0,77,90,6.91,US,1612056385
297,Pandan,14.0453,124.1694,77.18,78,100,18.66,PH,1612056385
298,Bollnäs,61.3482,16.3946,5.0,57,12,1.99,SE,1612056385
299,Luganville,-15.5333,167.1667,84.78,64,72,8.3,VU,1612056385
300,Shebalino,51.2917,85.6772,14.85,87,0,4.59,RU,1612056385
301,Ilulissat,69.2167,-51.1,6.8,66,90,6.91,GL,1612055744
302,Padang,-0.9492,100.3543,77.65,75,98,3.78,ID,1612055571
303,Damaturu,11.747,11.9608,66.31,26,0,8.57,NG,1612056386
304,Rudnaya Pristan',44.3614,135.8116,1.98,81,0,12.71,RU,1612056386
305,Grand-Santi,4.25,-54.3833,73.89,97,97,3.11,GF,1612056386
306,Buraidah,26.326,43.975,50.0,66,0,5.75,SA,1612055613
307,Shubarkuduk,49.1447,56.4872,15.42,94,0,9.37,KZ,1612055994
308,Nizhniy Tsasuchey,50.5167,115.1333,-16.04,86,100,7.23,RU,1612056230
309,Ostrovnoy,68.0531,39.5131,14.54,95,100,7.47,RU,1612055804
310,Yulara,-25.2406,130.9889,89.6,20,40,17.27,AU,1612055788
311,Myaundzha,63.0494,147.1858,-23.49,79,100,4.18,RU,1612056386
312,Aripuanã,-9.1667,-60.6333,73.89,98,100,1.63,BR,1612055819
313,Fortuna,40.5982,-124.1573,53.01,87,90,21.85,US,1612055561
314,Placerville,38.7296,-120.7986,51.01,70,1,4.61,US,1612056387
315,Hambantota,6.1241,81.1185,75.2,100,20,9.22,LK,1612055812
316,Port Hardy,50.6996,-127.4199,46.4,76,90,19.57,CA,1612055802
317,Rocha,-34.4833,-54.3333,65.75,91,100,18.12,UY,1612055863
318,Camacha,33.0833,-16.3333,57.2,94,20,2.3,PT,1612056202
319,Épinal,48.1833,6.45,44.6,93,90,5.75,FR,1612056387
320,Iracoubo,5.4802,-53.2011,78.13,86,100,15.61,GF,1612056294
321,Maceió,-9.6658,-35.7353,75.2,94,75,2.3,BR,1612055631
322,Ucluelet,48.9329,-125.5528,45.0,93,90,18.41,CA,1612056335
323,Linda,39.1277,-121.5508,55.99,62,90,4.61,US,1612056387
324,Kigali,-1.95,30.0588,64.4,88,20,4.61,RW,1612056387
325,Mehrān,33.1222,46.1646,48.16,54,0,2.73,IR,1612056387
326,Kiryat Gat,31.61,34.7642,55.0,58,0,10.96,IL,1612056058
327,Tres Palos,18.1833,-101.6167,72.86,76,57,3.87,MX,1612056388
328,Richards Bay,-28.783,32.0377,73.69,95,88,4.23,ZA,1612055845
329,Khatanga,71.9667,102.5,-47.02,78,40,0.72,RU,1612055716
330,Shubarshi,48.5872,57.1869,14.23,93,0,7.61,KZ,1612056388
331,Acajutla,13.5928,-89.8275,80.6,54,20,5.79,SV,1612056156
332,Boende,-0.2167,20.8667,70.48,96,100,2.35,CD,1612056388
333,Ust-Nera,64.5667,143.2,-25.51,76,92,7.78,RU,1612056065
334,Lagoa,39.05,-27.9833,61.9,94,100,25.64,PT,1612055599
335,Hithadhoo,-0.6,73.0833,81.68,79,24,14.23,MV,1612056191
336,Khilchipur,24.0333,76.5667,50.67,42,0,3.87,IN,1612056389
337,Ilebo,-4.3167,20.5833,70.72,96,100,1.36,CD,1612056389
338,Cidreira,-30.1811,-50.2056,75.67,91,92,8.34,BR,1612055553
339,Ormara,25.2088,64.6357,67.84,69,0,11.05,PK,1612056390
340,Kieta,-6.2167,155.6333,84.02,72,100,16.44,PG,1612056095
341,Avera,33.194,-82.5271,46.4,49,40,5.75,US,1612056008
342,Naze,28.3667,129.4833,62.6,55,75,9.22,JP,1612056229
343,Broken Hill,-31.95,141.4333,80.6,32,48,14.97,AU,1612055802
344,Beïnamar,8.6698,15.3813,71.33,22,0,3.94,TD,1612056390
345,Port Hedland,-20.3167,118.5667,87.8,58,90,10.36,AU,1612055999
346,Altamira,-3.2033,-52.2064,72.93,97,37,2.89,BR,1612056102
347,Srīvardhan,18.0333,73.0167,73.04,45,0,5.48,IN,1612056390
348,Tandil,-37.3217,-59.1332,59.0,62,100,7.0,AR,1612056313
349,Brzeziny,51.8002,19.7514,24.01,80,75,5.75,PL,1612056390
350,Basna,21.2833,82.8167,50.38,39,0,2.77,IN,1612056390
351,Ambilobe,-13.2,49.05,72.61,93,0,2.53,MG,1612055799
352,Guerrero Negro,27.9769,-114.0611,60.84,65,100,15.99,MX,1612056183
353,Zhigansk,66.7697,123.3711,-48.64,74,59,3.69,RU,1612056391
354,Goya,-29.14,-59.2626,72.61,91,99,6.02,AR,1612055824
355,Kamenka,51.3223,42.7678,35.01,93,100,17.11,RU,1612056010
356,Vigeland,58.0844,7.305,32.0,85,0,5.75,NO,1612056391
357,Sobolevo,54.4299,31.8996,15.6,97,100,3.85,RU,1612055828
358,Kyzyl-Suu,42.3414,78.0056,21.27,66,67,10.54,KG,1612055606
359,Okha,53.5739,142.9478,-4.54,90,100,18.34,RU,1612056391
360,Katsuura,35.1333,140.3,48.99,39,20,8.05,JP,1612055823
361,Mandalgovi,45.7625,106.2708,5.56,79,91,21.9,MN,1612055825
362,Minolos,10.1019,123.4727,80.6,74,75,19.57,PH,1612056391
363,Rawson,-43.3002,-65.1023,60.69,59,6,16.87,AR,1612055843
364,Grand-Lahou,5.1367,-5.0242,79.25,88,13,9.53,CI,1612055806
365,Kinsale,51.7075,-8.5306,43.0,87,75,11.5,IE,1612056391
366,Fontem,5.4685,9.8818,66.92,62,0,1.9,CM,1612056392
367,Black Forest,39.0131,-104.7008,37.99,47,1,6.91,US,1612055646
368,Zinder,13.8072,8.9881,64.42,26,0,9.66,NE,1612056392
369,Dondo,-19.6094,34.7431,78.8,89,20,4.61,MZ,1612056392
370,Pedernales,18.0384,-71.744,76.08,67,18,1.88,DO,1612056392
371,Iaciara,-14.0958,-46.6317,78.26,55,100,3.8,BR,1612056392
372,Georgiyevka,43.0369,74.7114,28.4,59,0,6.71,KZ,1612056392
373,West Milford,41.1312,-74.3674,25.0,58,0,3.0,US,1612056392
374,Benguela,-12.5763,13.4055,76.68,75,100,2.73,AO,1612055825
375,Safi,32.2994,-9.2372,58.64,86,85,9.17,MA,1612056392
376,Mahabalipuram,12.6264,80.1722,71.6,100,20,7.02,IN,1612056392
377,Yiyang,28.5892,112.3283,48.31,84,94,1.77,CN,1612056392
378,Isla Vista,34.4133,-119.861,55.4,67,1,9.22,US,1612056393
379,Yinzhu,35.8786,119.9753,46.99,75,0,6.55,CN,1612056393
380,Moba,33.2288,105.0179,31.41,74,97,3.0,CN,1612056393
381,Vao,-22.6667,167.4833,75.83,79,100,22.26,NC,1612055819
382,South Kazakhstan Region,43.0,68.0,38.46,69,100,6.11,KZ,1612056393
383,Jamame,0.0722,42.7506,71.69,89,0,7.81,SO,1612056393
384,Tūkrah,32.5341,20.5791,58.89,83,0,11.68,LY,1612056393
385,Novikovo,51.1537,37.8879,35.28,97,100,21.39,RU,1612056393
386,Wagar,16.1525,36.2032,60.76,91,0,7.81,SD,1612055849
387,George Town,5.4112,100.3354,81.0,69,20,3.44,MY,1612056393
388,Castro Urdiales,43.3829,-3.2204,55.4,62,75,27.63,ES,1612056393
389,Nyandoma,61.669,40.1991,15.12,97,100,6.87,RU,1612056393
390,Muzhi,65.3667,64.6667,-15.79,89,100,3.22,RU,1612056394
391,Watertown,42.3709,-71.1828,17.01,48,1,14.97,US,1612056365
392,Lantawan,10.6167,123.9833,80.6,74,75,19.57,PH,1612056394
393,Fairbanks,64.8378,-147.7164,-2.2,77,90,1.07,US,1612055776
394,Tashtagol,52.7657,87.8894,1.06,92,39,3.0,RU,1612056394
395,Kimbe,-5.5502,150.1429,80.26,85,100,8.19,PG,1612056394
396,Sur,22.5667,59.5289,65.21,52,0,3.22,OM,1612055799
397,Kovūr,14.4833,79.9833,67.55,88,70,2.19,IN,1612056394
398,Dergachi,51.2328,48.7659,19.45,95,43,9.69,RU,1612056394
399,Rockport,28.0206,-97.0544,69.8,88,1,10.36,US,1612056395
400,Mahébourg,-20.4081,57.7,78.8,83,40,6.91,MU,1612056203
401,Santa Maria,-29.6842,-53.8069,69.8,100,90,6.91,BR,1612056265
402,Kisanga,-7.4362,37.7034,74.1,88,96,2.91,TZ,1612056395
403,South River,40.4465,-74.386,28.99,53,0,7.23,US,1612056395
404,Tiparak,8.0341,123.5288,82.06,68,87,2.04,PH,1612056395
405,Gayny,60.3071,54.3241,25.07,97,100,8.99,RU,1612056395
406,Kansk,56.2017,95.7175,-41.49,79,6,0.94,RU,1612056395
407,Touros,-5.1989,-35.4608,77.0,88,20,3.44,BR,1612055990
408,Asău,46.4333,26.4,34.0,80,90,16.11,RO,1612056274
409,Loa Janan,-0.583,117.095,77.88,87,100,4.23,ID,1612056395
410,Yar-Sale,66.8333,70.8333,-17.63,86,100,17.9,RU,1612055544
411,Fram,-26.9833,-55.8833,69.8,94,90,10.36,PY,1612056396
412,Bandarbeyla,9.4942,50.8122,73.8,72,100,15.79,SO,1612055541
413,Waipawa,-41.4122,175.5153,71.01,68,0,12.66,NZ,1612056189
414,Pontes e Lacerda,-15.2261,-59.3353,74.89,91,72,3.87,BR,1612056293
415,Ati,13.2154,18.3353,68.92,23,0,10.22,TD,1612056396
416,Grindavik,63.8424,-22.4338,19.4,73,0,6.91,IS,1612055536
417,São João da Barra,-21.6403,-41.0511,77.86,78,0,21.54,BR,1612056394
418,Kuliyapitiya,7.4688,80.0401,73.4,100,20,2.3,LK,1612056396
419,San Luis,-33.295,-66.3356,63.46,68,0,17.78,AR,1612056139
420,La Arena,-5.3466,-80.7109,81.01,52,14,17.27,PE,1612056396
421,Shurugwi,-19.6702,30.0059,63.55,100,100,2.62,ZW,1612056396
422,Hervey Bay,-25.2986,152.8535,87.01,51,0,14.97,AU,1612055872
423,Nome,64.5011,-165.4064,-5.8,71,1,5.75,US,1612055822
424,Riyadh,24.6877,46.7219,50.0,50,0,5.75,SA,1612055985
425,Baní,18.2833,-70.3333,73.0,99,61,16.51,DO,1612056397
426,Mackenzie,55.2999,-123.1698,12.2,85,90,3.44,CA,1612056397
427,Atocha,-20.9333,-66.2333,56.3,34,0,6.02,BO,1612056397
428,San Francisco del Mar Viejo,16.2333,-94.65,78.75,68,83,16.51,MX,1612056397
429,Kukuna,9.4,-12.6667,71.26,81,0,3.09,SL,1612056397
430,Carutapera,-1.195,-46.02,78.49,83,100,7.14,BR,1612055866
431,Champawat,29.3333,80.1,30.97,85,0,5.37,IN,1612056397
432,Ranong,9.9658,98.6348,75.2,94,20,2.3,TH,1612056398
433,Puerto Madryn,-42.7692,-65.0385,63.64,57,23,16.73,AR,1612056398
434,Bairiki Village,1.3292,172.9752,86.0,70,40,9.22,KI,1612055817
435,Departamento de Maldonado,-34.6667,-54.9167,68.0,77,75,19.57,UY,1612056398
436,Iranshahr,27.2025,60.6848,52.29,68,0,1.52,IR,1612056398
437,Zeya,53.75,127.2667,-27.58,83,100,1.63,RU,1612055597
438,Lindi,-10.0,39.7167,75.22,93,100,3.76,TZ,1612056398
439,Corrente,-3.7367,-43.3394,73.98,97,100,2.84,BR,1612056398
440,Khovd,48.0056,91.6419,6.8,82,3,1.45,MN,1612056339
441,Batemans Bay,-35.7167,150.1833,68.0,79,100,5.01,AU,1612056123
442,Oistins,13.0667,-59.5333,78.8,73,75,19.57,BB,1612056398
443,Raudeberg,61.9875,5.1352,32.0,93,100,8.63,NO,1612055998
444,Huilong,31.8111,121.655,54.0,70,100,1.01,CN,1612055613
445,Almaznyy,48.0448,40.045,33.8,100,40,15.66,RU,1612055857
446,Esperance,-33.8667,121.9,73.4,49,0,10.36,AU,1612056290
447,Rantauprapat,2.1,99.8333,74.55,88,94,2.66,ID,1612056276
448,Rumuruti,0.267,36.5389,53.55,84,30,6.51,KE,1612056399
449,Darhan,49.4867,105.9228,-1.68,88,100,9.08,MN,1612055848
450,Bilibino,68.0546,166.4372,-26.52,79,0,5.53,RU,1612055843
451,Andenes,69.3143,16.1194,25.0,73,100,3.44,NO,1612056399
452,Pimentel,-6.8367,-79.9342,75.2,64,0,13.8,PE,1612055845
453,Inhambane,-23.865,35.3833,78.12,80,0,5.64,MZ,1612056399
454,Östersund,63.1792,14.6357,1.4,92,90,2.26,SE,1612056399
455,Numan,9.4667,12.0333,73.85,21,0,4.61,NG,1612056400
456,Yarmouth,41.7057,-70.2286,21.99,49,1,4.61,US,1612056400
457,Hinganghāt,20.5667,78.8333,55.4,44,0,2.3,IN,1612056265
458,Zhireken,52.8249,117.3076,-27.24,83,10,1.66,RU,1612056400
459,Evensk,61.95,159.2333,1.45,86,100,23.22,RU,1612056400
460,Maumere,-8.6199,122.2111,81.84,77,100,8.93,ID,1612055870
461,Pacific Grove,36.6177,-121.9166,55.4,67,1,4.61,US,1612055645
462,Chimoio,-19.1164,33.4833,71.6,100,75,5.75,MZ,1612056400
463,Buluang,13.3068,123.3425,78.22,72,100,6.91,PH,1612056400
464,Dīglūr,18.55,77.6,64.54,77,5,2.93,IN,1612056400
465,Ifakara,-8.1333,36.6833,71.31,90,93,1.57,TZ,1612056401
466,Adjumani,3.3779,31.7909,75.07,29,21,2.53,UG,1612056401
467,Eureka,40.8021,-124.1637,53.01,87,90,6.91,US,1612055766
468,Houston,29.7633,-95.3633,71.6,83,90,6.91,US,1612055975
469,Haimen,23.1935,116.6142,57.2,77,0,2.24,CN,1612056401
470,Chiredzi,-21.05,31.6667,72.1,93,99,5.46,ZW,1612056401
471,Yurga,55.7231,84.8861,-21.41,83,41,6.51,RU,1612056401
472,Barcelos,41.5388,-8.6151,53.6,94,75,5.75,PT,1612056291
473,Province of Mantua,45.1667,10.7833,41.0,100,90,4.61,IT,1612056401
474,Jiangyou,31.7667,104.7167,46.26,56,86,2.73,CN,1612056401
475,Barra de Tecoanapa,16.5167,-98.75,78.8,76,100,6.06,MX,1612056401
476,Chimbote,-9.0853,-78.5783,70.57,77,96,7.38,PE,1612056262
477,Meulaboh,4.1363,96.1285,75.97,83,58,4.41,ID,1612055822
478,Mwene-Ditu,-7.0,23.45,65.95,93,100,2.37,CD,1612056402
479,Nova Olinda do Norte,-3.8881,-59.0942,76.6,84,37,1.66,BR,1612056402
480,Wattegama,6.7989,81.4808,75.2,100,20,9.22,LK,1612055819
481,Qasigiannguit,68.8193,-51.1922,6.8,66,90,6.91,GL,1612056007
482,Ola,59.5833,151.2833,-13.29,81,62,16.24,RU,1612056021
483,Lorengau,-2.0226,147.2712,82.87,81,100,11.12,PG,1612056179
484,Bud,39.447,-86.1758,32.0,97,100,14.94,US,1612056402
485,Vila Franca do Campo,37.7167,-25.4333,62.6,88,75,16.11,PT,1612055820
486,Swan River,52.1058,-101.2676,15.8,92,100,2.84,CA,1612055838
487,Serabu,7.7958,-12.0536,75.6,86,0,0.87,SL,1612056402
488,Marystown,47.1666,-55.1483,30.04,94,100,8.7,CA,1612055998
489,Mizdah,31.4451,12.9801,55.13,38,0,10.42,LY,1612056130
490,Aksarka,66.5606,67.7975,-16.6,88,100,10.09,RU,1612055871
491,Talaya,61.3833,152.75,-29.16,80,100,9.46,RU,1612056403
492,Udachny,66.4167,112.4,-31.18,81,100,9.66,RU,1612055844
493,Austin,30.2672,-97.7431,69.8,46,1,6.46,US,1612056311
494,Fallon,39.4735,-118.7774,42.8,65,40,5.75,US,1612056403
495,Saint Paul Harbor,57.79,-152.4072,32.0,55,1,19.57,US,1612056403
496,Ouadda,8.0777,22.4007,70.34,22,42,7.34,CF,1612055994
497,Comodoro Rivadavia,-45.8667,-67.5,57.2,62,0,6.91,AR,1612055840
498,Esmeraldas,-19.7625,-44.3139,78.8,64,0,6.91,BR,1612055843
499,Itoman,26.1247,127.6694,66.2,52,20,11.5,JP,1612056022
500,Great Yarmouth,52.6083,1.7305,39.0,75,0,8.05,GB,1612055614
501,Carballo,43.213,-8.691,51.01,92,100,1.01,ES,1612056197
502,Palauig,15.435,119.9045,75.43,56,100,6.11,PH,1612056404
503,Arrondissement de Bourges,47.25,2.4167,46.99,100,90,6.91,FR,1612056404
504,Mahon,39.8885,4.2658,48.2,93,20,5.75,ES,1612056395
505,Mukhen,48.1,136.1,-10.5,84,25,8.48,RU,1612056404
506,Standerton,-26.9337,29.2415,62.01,99,90,3.22,ZA,1612056242
507,Farrukhnagar,17.0778,78.2011,69.01,94,20,5.75,IN,1612056131
508,Levelland,33.5873,-102.378,54.0,35,1,6.91,US,1612056404
509,Mitsamiouli,-11.3847,43.2844,81.79,78,92,10.51,KM,1612055766
510,Cravo Norte,6.3017,-70.2041,83.25,47,62,6.26,CO,1612056404
511,Forsytheganj,52.6333,29.7333,23.07,98,100,7.4,BY,1612056404
512,Tres Arroyos,-38.3739,-60.2798,52.41,77,0,6.89,AR,1612056404
513,Rayong,12.8333,101.4333,81.0,87,0,3.74,TH,1612056405
514,Kamiiso,41.8167,140.65,23.0,86,75,13.8,JP,1612056405
515,Chernyshevskiy,63.0128,112.4714,-29.02,86,100,4.72,RU,1612056006
516,Tumba,59.1986,17.8332,15.01,92,90,6.91,SE,1612055820
517,Mossamedes,-15.1961,12.1522,72.97,75,95,5.7,AO,1612055820
518,Tual,-5.6667,132.75,83.61,75,79,14.63,ID,1612056072
519,Burley,42.5357,-113.7928,35.6,64,1,6.58,US,1612056316
520,Nizwá,22.9333,57.5333,56.12,59,0,2.42,OM,1612055740
521,Honolulu,21.3069,-157.8583,82.4,47,40,13.8,US,1612056212
522,Liwale,-9.7667,37.9333,71.26,97,100,6.58,TZ,1612056405
523,Pangnirtung,66.1451,-65.7125,-8.93,74,23,2.57,CA,1612055749
524,Wairoa,-39.0333,177.3667,64.99,74,90,8.01,NZ,1612056405
525,Chokwé,-24.5333,32.9833,76.68,88,0,4.23,MZ,1612056192
526,College,64.8569,-147.8028,-4.0,77,90,1.14,US,1612055766
527,Bontang,0.1333,117.5,77.79,86,100,8.34,ID,1612056022
528,Pula,44.8683,13.8481,50.0,93,90,9.22,HR,1612056373
529,Conceição do Araguaia,-8.2578,-49.2647,74.03,91,100,3.04,BR,1612056406
530,Keelung,25.1283,121.7419,69.8,68,20,3.44,TW,1612056406
531,Nelson Bay,-32.7167,152.15,80.6,74,40,17.27,AU,1612055948
532,Kulhudhuffushi,6.6221,73.07,81.66,65,23,5.86,MV,1612056406
533,Norman Wells,65.282,-126.8329,-31.0,75,75,3.31,CA,1612056406
534,Son La,21.3167,103.9,57.47,92,91,2.73,VN,1612056406
535,Tiznit Province,29.5833,-9.5,56.35,84,85,2.26,MA,1612056406
536,Grand Gaube,-20.0064,57.6608,75.99,85,4,3.0,MU,1612055818
537,Tateyama,34.9833,139.8667,50.0,57,20,5.75,JP,1612056407
538,Namie,37.4833,141.0,39.99,43,5,1.99,JP,1612056407
539,Karlskoga,59.3267,14.5239,19.0,85,0,4.61,SE,1612056407
540,Gibgos,13.859,123.7675,76.37,81,100,16.49,PH,1612056407
541,Vestmannaeyjar,63.4427,-20.2734,31.35,94,100,9.4,IS,1612056010
542,Alihe,50.5667,123.7167,-16.56,84,100,0.31,CN,1612056407
543,Plainview,40.7765,-73.4673,28.99,40,1,4.61,US,1612056407
544,Ixtlán de los Hervores,20.1833,-102.4,66.72,30,0,2.89,MX,1612056407
545,Havelock,34.8791,-76.9013,36.0,75,1,8.05,US,1612055767
546,Santa Helena de Goiás,-17.8136,-50.5969,73.63,79,82,4.25,BR,1612056407
547,Fuxin,42.0156,121.6589,12.58,90,100,4.5,CN,1612056407
548,Dongning,44.0622,131.1207,-3.14,81,0,1.12,CN,1612056408
549,Warri,5.5167,5.75,78.48,86,0,1.43,NG,1612056408
550,Tazovsky,67.4667,78.7,-25.19,84,100,16.62,RU,1612055824
551,Kuytun,54.3419,101.5036,-33.97,81,49,7.87,RU,1612055999
552,Shelburne,44.0787,-80.2041,10.99,82,100,3.36,CA,1612055717
553,Derzhavīnsk,51.1,66.3167,18.0,93,100,4.76,KZ,1612056408
